{
  "nodes": {
    "entrance-1f": { "coordinates": [126.97600, 37.29390], "level": 1, "type": "entrance", "label": "정문" },
    "corridor-1f-main": { "coordinates": [126.97630, 37.29395], "level": 1, "type": "corridor" },
    "corridor-1f-21": { "coordinates": [126.97620, 37.29390], "level": 1, "type": "corridor" },
    "corridor-1f-22": { "coordinates": [126.97650, 37.29410], "level": 1, "type": "corridor" },
    "corridor-1f-23": { "coordinates": [126.97620, 37.29430], "level": 1, "type": "corridor" },
    "stairs-a": { "coordinates": [126.97615, 37.29392], "level": [1,2,3,4,5], "type": "stairs", "label": "계단A" },
    "stairs-b": { "coordinates": [126.97645, 37.29392], "level": [1,2,3,4,5], "type": "stairs", "label": "계단B" },
    "stairs-c": { "coordinates": [126.97652, 37.29420], "level": [1,2,3,4,5], "type": "stairs", "label": "계단C" },
    "stairs-d": { "coordinates": [126.97615, 37.29432], "level": [1,2,3,4,5], "type": "stairs", "label": "계단D" },
    "elevator-1": { "coordinates": [126.97635, 37.29400], "level": [1,2,3,4,5], "type": "elevator", "label": "엘리베이터" },
    "corridor-2f-main": { "coordinates": [126.97630, 37.29395], "level": 2, "type": "corridor" },
    "corridor-3f-main": { "coordinates": [126.97630, 37.29395], "level": 3, "type": "corridor" },
    "corridor-4f-main": { "coordinates": [126.97630, 37.29395], "level": 4, "type": "corridor" },
    "corridor-5f-main": { "coordinates": [126.97630, 37.29395], "level": 5, "type": "corridor" }
  },
  "edges": [
    { "from": "entrance-1f", "to": "corridor-1f-main", "weight": 15 },
    { "from": "corridor-1f-main", "to": "corridor-1f-21", "weight": 10 },
    { "from": "corridor-1f-main", "to": "corridor-1f-22", "weight": 20 },
    { "from": "corridor-1f-main", "to": "stairs-a", "weight": 8 },
    { "from": "corridor-1f-main", "to": "stairs-b", "weight": 12 },
    { "from": "corridor-1f-main", "to": "elevator-1", "weight": 5 },
    { "from": "corridor-1f-22", "to": "stairs-c", "weight": 8 },
    { "from": "corridor-1f-23", "to": "stairs-d", "weight": 8 },
    { "from": "stairs-a", "to": "corridor-2f-main", "weight": 20 },
    { "from": "stairs-a", "to": "corridor-3f-main", "weight": 40 },
    { "from": "stairs-a", "to": "corridor-4f-main", "weight": 60 },
    { "from": "stairs-a", "to": "corridor-5f-main", "weight": 80 },
    { "from": "elevator-1", "to": "corridor-2f-main", "weight": 15 },
    { "from": "elevator-1", "to": "corridor-3f-main", "weight": 15 },
    { "from": "elevator-1", "to": "corridor-4f-main", "weight": 15 },
    { "from": "elevator-1", "to": "corridor-5f-main", "weight": 15 }
  ]
}
